[
  {
    "type": "Feature",
    "geometry": {
      "type": "Point",
      "coordinates": [
        -79.43598,
        43.65993
      ]
    },
    "properties": {
      "id": 180798,
      "name": "Brand 1",
      "radius": 200,
      "poiType": 2,
      "city": "Toronto",
      "region": "ON",
      "postalCode": "M6H 4E6",
      "country": "CAN",
      "polygon": null,
      "polygon_json": null,
      "lat": 43.65993,
      "lon": -79.43598,
      "center_lon": null,
      "center_lat": null,
      "locationType": 2,
      "category": null,
      "deprecated": false
    }
  },
  {
    "type": "Feature",
    "geometry": {
      "type": "Point",
      "coordinates": [
        -79.40929,
        43.65639
      ]
    },
    "properties": {
      "id": 180799,
      "name": "Brand 2",
      "radius": 400,
      "poiType": 2,
      "city": "Toronto",
      "region": "ON",
      "postalCode": "M6G 1A4",
      "country": "CAN",
      "polygon": null,
      "polygon_json": null,
      "lat": 43.65639,
      "lon": -79.40929,
      "center_lon": null,
      "center_lat": null,
      "locationType": 2,
      "category": null,
      "deprecated": false
    }
  },
  {
    "type": "Feature",
    "geometry": {
      "type": "Point",
      "coordinates": [
        -79.37837,
        43.66606
      ]
    },
    "properties": {
      "id": 180800,
      "name": "log name",
      "radius": 800,
      "poiType": 2,
      "city": "Toronto",
      "region": "ON",
      "postalCode": "M4Y 2Y2",
      "country": "CAN",
      "polygon": null,
      "polygon_json": null,
      "lat": 43.66606,
      "lon": -79.37837,
      "center_lon": null,
      "center_lat": null,
      "locationType": 2,
      "category": null,
      "deprecated": false
    }
  },
  {
    "type": "Feature",
    "geometry": {
      "type": "Point",
      "coordinates": [
        -79.4188,
        43.67724
      ]
    },
    "properties": {
      "id": 180802,
      "name": "Brand 3",
      "radius": 200,
      "poiType": 2,
      "city": "Toronto",
      "region": "ON",
      "postalCode": "M6G 2V5",
      "country": "CAN",
      "polygon": null,
      "polygon_json": null,
      "lat": 43.67724,
      "lon": -79.4188,
      "center_lon": null,
      "center_lat": null,
      "locationType": 2,
      "category": null,
      "deprecated": false
    }
  },
  {
    "type": "Feature",
    "geometry": {
      "type": "Point",
      "coordinates": [
        -79.38173,
        43.65128
      ]
    },
    "properties": {
      "id": 180803,
      "name": "Brand 4",
      "radius": 200,
      "poiType": 2,
      "city": "Toronto",
      "region": "ON",
      "postalCode": "M5H 1W2",
      "country": "CAN",
      "polygon": null,
      "polygon_json": null,
      "lat": 43.65128,
      "lon": -79.38173,
      "center_lon": null,
      "center_lat": null,
      "locationType": 2,
      "category": null,
      "deprecated": false
    }
  },
  {
    "type": "Feature",
    "geometry": {
      "type": "Point",
      "coordinates": [
        -79.38381,
        43.6682
      ]
    },
    "properties": {
      "id": 180804,
      "name": "Brand 5",
      "radius": 200,
      "poiType": 2,
      "city": "Toronto",
      "region": "ON",
      "postalCode": "M4Y 1N1",
      "country": "CAN",
      "polygon": null,
      "polygon_json": null,
      "lat": 43.6682,
      "lon": -79.38381,
      "center_lon": null,
      "center_lat": null,
      "locationType": 2,
      "category": null,
      "deprecated": false
    }
  }
]
